,City,Lat,Lng,Max Temp,Humidity,Cloudiness,Wind Speed,Country,Date
0,Noumea,-22.28,166.46,73.4,60,40,9.17,NC,1594855704
1,Souillac,-20.52,57.52,66.2,100,75,3.36,MU,1594855904
2,Staryy Nadym,65.61,72.68,50.41,83,51,21.63,RU,1594855904
3,Hermanus,-34.42,19.23,42.01,88,43,1.99,ZA,1594855904
4,Ostrovnoy,68.05,39.51,50.2,74,0,7.27,RU,1594855904
5,Upernavik,72.79,-56.15,42.78,89,62,2.3,GL,1594855904
6,São José da Coroa Grande,-8.9,-35.15,75.16,79,7,7.09,BR,1594855904
7,Alofi,-19.06,-169.92,77.0,69,75,14.99,NU,1594855692
8,Alirajpur,22.3,74.35,77.72,88,100,3.69,IN,1594855905
9,Celestún,20.87,-90.4,87.84,66,17,18.5,MX,1594855905
10,Hong Kong,22.29,114.16,86.0,74,86,11.01,HK,1594855870
11,Swift Current,50.28,-107.8,69.8,52,20,16.11,CA,1594855761
12,Isangel,-19.55,169.27,77.0,83,20,3.36,VU,1594855905
13,Russell,32.35,-85.2,75.2,88,40,3.36,US,1594855675
14,Bluff,-46.6,168.33,39.0,83,42,3.0,NZ,1594855905
15,Saint George,37.1,-113.58,104.0,9,1,9.17,US,1594855829
16,Ushuaia,-54.8,-68.3,28.4,86,1,5.82,AR,1594855645
17,Arraial do Cabo,-22.97,-42.03,68.0,72,90,4.7,BR,1594855905
18,Thompson,55.74,-97.86,60.8,93,90,13.87,CA,1594855905
19,Kapaa,22.08,-159.32,82.4,74,75,11.41,US,1594855905
20,Cidreira,-30.18,-50.21,49.64,64,0,5.68,BR,1594855906
21,Kāman,27.65,77.27,89.92,55,27,7.23,IN,1594855906
22,Port Alfred,-33.59,26.89,52.81,43,0,4.72,ZA,1594855906
23,Tigre,-34.43,-58.58,50.0,71,0,4.7,AR,1594855906
24,Itarema,-2.92,-39.92,77.38,80,5,12.39,BR,1594855906
25,Synya,65.37,58.04,49.6,75,99,7.7,RU,1594855712
26,San Vicente,-26.62,-54.13,54.09,86,70,3.65,AR,1594855906
27,Qaqortoq,60.72,-46.03,53.6,62,8,9.17,GL,1594855906
28,Bambanglipuro,-7.95,110.28,76.89,85,83,9.19,ID,1594855906
29,Aswān,24.09,32.91,88.09,17,0,12.41,EG,1594855609
30,Qaanaaq,77.48,-69.36,42.13,83,100,5.21,GL,1594855906
31,Fairlie,55.76,-4.86,57.0,91,96,8.01,GB,1594855906
32,Saint-Philippe,-21.36,55.77,66.2,72,41,4.7,RE,1594855906
33,Vaini,-21.2,-175.2,73.4,88,75,6.93,TO,1594855906
34,Bubaque,11.28,-15.83,78.93,86,100,23.2,GW,1594855906
35,Punta Arenas,-53.15,-70.92,33.8,86,75,5.82,CL,1594855653
36,Mgandu,-5.95,34.13,62.08,65,76,14.76,TZ,1594855907
37,Takoradze,4.88,-1.76,73.67,86,93,8.88,GH,1594855907
38,Cape Town,-33.93,18.42,44.6,87,6,3.36,ZA,1594855907
39,Maniitsoq,65.42,-52.9,45.19,74,83,16.17,GL,1594855649
40,Puerto Ayora,-0.74,-90.35,70.0,83,88,1.01,EC,1594855907
41,Tuktoyaktuk,69.45,-133.04,60.8,55,40,9.17,CA,1594855907
42,Busselton,-33.65,115.33,60.01,95,31,21.61,AU,1594855907
43,Mataura,-46.19,168.86,39.0,83,14,3.0,NZ,1594855907
44,Erenhot,43.65,111.98,78.98,45,100,2.48,CN,1594855907
45,Guisa,20.25,-76.54,87.8,62,20,17.22,CU,1594855907
46,Buala,-8.14,159.59,77.2,86,100,13.31,SB,1594855908
47,Naze,28.37,129.48,80.6,94,75,9.17,JP,1594855908
48,Koutiala,12.39,-5.46,75.31,84,99,8.63,ML,1594855908
49,Rikitea,-23.12,-134.97,74.46,84,88,8.97,PF,1594855908
50,Zhangye,38.93,100.45,74.62,43,96,9.86,CN,1594855908
51,Teacapan,22.55,-105.75,87.26,65,1,10.31,MX,1594855908
52,Faanui,-16.48,-151.75,78.08,86,18,17.25,PF,1594855645
53,Clyde River,70.47,-68.59,60.8,48,1,13.87,CA,1594855642
54,Praia da Vitória,38.73,-27.07,69.8,77,75,11.5,PT,1594855908
55,Ennigerloh,51.83,8.02,61.0,76,95,1.01,DE,1594855908
56,Denpasar,-8.65,115.22,78.8,94,20,16.11,ID,1594855849
57,Olafsvik,64.89,-23.71,50.36,91,100,22.86,IS,1594855908
58,Nānākuli,21.39,-158.15,87.8,52,20,8.05,US,1594855908
59,Sulangan,11.14,123.72,83.08,74,84,12.39,PH,1594855909
60,Acaraú,-2.89,-40.12,77.22,81,9,12.35,BR,1594855909
61,Cherskiy,68.75,161.3,46.74,60,100,4.21,RU,1594855643
62,Vila Franca do Campo,37.72,-25.43,66.2,72,40,8.05,PT,1594855714
63,Bonthe,7.53,-12.51,76.73,79,93,11.27,SL,1594855657
64,Mossamedes,-15.2,12.15,64.63,86,16,6.76,AO,1594855909
65,Tezu,27.92,96.17,76.32,85,100,1.54,IN,1594855909
66,Nikolskoye,59.7,30.79,60.8,67,20,6.71,RU,1594855909
67,Srednekolymsk,67.45,153.68,46.58,64,96,8.9,RU,1594855909
68,Yumaguzino,52.9,56.39,70.52,50,0,7.34,RU,1594855909
69,Peleduy,59.63,112.74,61.63,88,99,5.64,RU,1594855909
70,Bredasdorp,-34.53,20.04,37.4,93,53,2.24,ZA,1594855909
71,Villaviciosa,43.48,-5.44,62.6,82,75,1.12,ES,1594855909
72,Kargil,34.57,76.1,53.19,54,9,6.13,IN,1594855909
73,Avarua,-21.21,-159.78,75.2,57,77,8.05,CK,1594855909
74,San Patricio,19.22,-104.7,86.0,74,75,11.41,MX,1594855910
75,Klaksvík,62.23,-6.59,50.0,100,100,9.17,FO,1594855643
76,Dukat,62.55,155.55,50.38,68,99,8.84,RU,1594855910
77,Huarmey,-10.07,-78.15,62.44,83,20,9.64,PE,1594855910
78,Sikasso,10.92,-7.0,74.88,86,51,7.05,ML,1594855910
79,Saskylakh,71.92,114.08,65.14,43,88,19.66,RU,1594855910
80,Jamestown,42.1,-79.24,82.99,47,1,6.93,US,1594855824
81,Nemuro,43.32,145.57,54.54,89,100,6.93,JP,1594855910
82,Vila Velha,-20.33,-40.29,69.01,94,90,9.17,BR,1594855614
83,East London,-33.02,27.91,54.57,48,0,5.57,ZA,1594855910
84,Mana,5.66,-53.78,78.19,85,1,8.39,GF,1594855910
85,Tasiilaq,65.61,-37.64,46.4,70,0,5.82,GL,1594855910
86,Carnarvon,-24.87,113.63,66.2,63,90,8.05,AU,1594855911
87,Caruray,10.31,119.01,82.51,72,92,3.02,PH,1594855911
88,Koumra,8.91,17.55,71.11,95,90,3.13,TD,1594855911
89,Sehithwa,-20.47,22.72,50.02,67,0,12.24,BW,1594855911
90,Necochea,-38.55,-58.74,42.01,77,1,7.0,AR,1594855835
91,Atuona,-9.8,-139.03,79.29,76,10,16.78,PF,1594855911
92,Tual,-5.67,132.75,78.85,85,16,19.8,ID,1594855911
93,Campo Verde,-20.42,-54.07,77.0,61,66,3.36,BR,1594855912
94,Dudinka,69.41,86.18,48.2,87,75,4.47,RU,1594855912
95,La Rioja,42.25,-2.5,60.8,72,6,5.82,ES,1594855912
96,Iqaluit,63.75,-68.51,62.6,42,20,2.24,CA,1594855812
97,Belmonte,-15.86,-38.88,73.4,83,20,2.24,BR,1594855912
98,Dingle,11.0,122.67,80.11,84,59,6.06,PH,1594855913
99,Henties Bay,-22.12,14.28,72.0,16,0,1.99,NA,1594855913
100,La Ronge,55.1,-105.28,64.4,68,75,13.87,CA,1594855913
101,Lebu,-37.62,-73.65,51.75,91,100,2.24,CL,1594855913
102,Makakilo City,21.35,-158.09,87.8,52,20,8.05,US,1594855835
103,Albany,42.6,-73.97,86.0,54,46,2.33,US,1594855913
104,Carutapera,-1.2,-46.02,76.17,89,1,6.78,BR,1594855913
105,Westport,41.14,-73.36,75.0,79,73,9.1,US,1594855804
106,Mwinilunga,-11.74,24.43,54.03,40,5,7.36,ZM,1594855913
107,Saint-François,46.42,3.91,60.8,77,90,2.24,FR,1594855913
108,Aruppukkottai,9.52,78.1,83.39,59,100,6.89,IN,1594855913
109,Saldanha,-33.01,17.94,46.4,70,0,4.7,ZA,1594855661
110,Gizo Government Station,-8.1,156.84,83.41,75,56,14.83,SB,1594855913
111,Bambous Virieux,-20.34,57.76,66.2,100,75,3.36,MU,1594855913
112,Sambava,-14.27,50.17,68.22,84,39,9.4,MG,1594855913
113,Cockburn Town,21.46,-71.14,84.2,70,75,11.41,TC,1594855840
114,Salalah,17.02,54.09,80.6,94,75,2.24,OM,1594855655
115,Kodinsk,58.69,99.18,53.96,68,0,6.87,RU,1594855914
116,Yellowknife,62.46,-114.35,63.0,67,75,11.41,CA,1594855683
117,Saint Paul Harbor,57.79,-152.41,71.6,43,20,8.05,US,1594855914
118,Bismarck,46.81,-100.78,86.0,16,1,5.82,US,1594855914
119,Pudozh,61.81,36.53,53.2,94,100,10.78,RU,1594855914
120,Khilok,51.37,110.47,62.33,87,78,8.88,RU,1594855914
121,Deming,32.27,-107.76,100.4,15,1,10.29,US,1594855914
122,Pingzhuang,42.04,119.29,81.05,45,17,6.49,CN,1594855914
123,Safford,32.83,-109.71,98.6,18,1,14.99,US,1594855914
124,Mahon,39.89,4.27,73.4,69,0,6.93,ES,1594855914
125,Norman Wells,65.28,-126.83,78.8,39,75,4.7,CA,1594855914
126,Birobidzhan,48.8,132.95,77.72,82,96,4.14,RU,1594855914
127,Augusto Corrêa,-1.02,-46.63,75.78,89,0,5.01,BR,1594855914
128,Barrow,71.29,-156.79,46.4,70,1,9.17,US,1594855915
129,Cristalina,-16.77,-47.61,61.32,55,0,3.04,BR,1594855915
130,Coyhaique,-45.58,-72.07,35.6,93,90,4.7,CL,1594855915
131,Dikson,73.51,80.55,40.1,97,95,5.93,RU,1594855915
132,Gachsaran,30.36,50.8,93.2,16,0,6.93,IR,1594855915
133,Ossora,59.24,163.07,54.16,92,100,1.61,RU,1594855915
134,New Norfolk,-42.78,147.06,44.01,90,100,1.12,AU,1594855915
135,Chokurdakh,70.63,147.92,36.95,91,100,13.33,RU,1594855915
136,Saint-Joseph,-21.37,55.62,66.2,72,38,4.7,RE,1594855667
137,Uíge,-7.61,15.06,62.51,63,85,1.97,AO,1594855915
138,Hobart,-42.88,147.33,44.6,81,75,1.12,AU,1594855810
139,Umluj,25.02,37.27,82.38,53,0,5.61,SA,1594855916
140,Lavrentiya,65.58,-171.0,49.08,83,91,5.59,RU,1594855916
141,Montrose,38.42,-108.27,89.6,22,1,11.41,US,1594855916
142,Bantry,51.68,-9.45,57.2,87,75,11.41,IE,1594855916
143,Tiksi,71.69,128.87,36.99,87,15,21.32,RU,1594855916
144,Christchurch,-43.53,172.63,42.01,100,83,1.12,NZ,1594855672
145,Presidencia Roque Sáenz Peña,-26.79,-60.44,52.32,55,90,4.18,AR,1594855916
146,Mahébourg,-20.41,57.7,66.2,100,75,3.36,MU,1594855916
147,Kutum,14.2,24.67,75.81,60,93,8.57,SD,1594855916
148,Vao,-22.67,167.48,69.89,73,54,23.47,NC,1594855916
149,Egvekinot,66.32,-179.17,53.2,78,67,7.11,RU,1594855916
150,Forio,40.73,13.86,73.0,73,0,1.01,IT,1594855916
151,Kulhudhuffushi,6.62,73.07,83.55,79,100,13.89,MV,1594855916
152,Mar del Plata,-38.0,-57.56,48.99,75,0,6.93,AR,1594855758
153,Pangkalanbuun,-2.68,111.62,75.4,91,100,2.51,ID,1594855917
154,Hamilton,39.18,-84.53,89.01,48,1,4.7,US,1594855824
155,Kamaishi,39.27,141.88,60.8,100,75,2.24,JP,1594855917
156,Hilo,19.73,-155.09,84.2,62,40,9.17,US,1594855917
157,Thinadhoo,0.53,72.93,84.4,68,100,5.61,MV,1594855917
158,Bethel,41.37,-73.41,75.2,60,1,9.17,US,1594855917
159,Coquimbo,-29.95,-71.34,53.6,76,90,4.7,CL,1594855917
160,Tuatapere,-46.13,167.68,39.0,83,64,3.0,NZ,1594855917
161,Port Elizabeth,-33.92,25.57,37.4,93,17,4.7,ZA,1594855917
162,Opuwo,-18.06,13.84,54.05,34,0,16.89,NA,1594855917
163,Rumonge,-3.97,29.44,73.15,63,99,2.64,BI,1594855917
164,Kasongo,-4.45,26.67,76.28,61,88,0.89,CD,1594855917
165,São Paulo de Olivença,-3.38,-68.87,79.54,65,60,1.68,BR,1594855918
166,Deniliquin,-35.53,144.97,46.44,76,0,6.31,AU,1594855918
167,Longyearbyen,78.22,15.64,44.6,81,75,2.24,SJ,1594855918
168,Reading,51.46,-0.97,61.0,77,93,4.7,GB,1594855718
169,Alor Star,6.12,100.36,77.0,100,20,2.24,MY,1594855918
170,Allanridge,-27.75,26.64,37.9,58,0,3.67,ZA,1594855918
171,Guerrero Negro,27.98,-114.06,76.87,54,95,20.36,MX,1594855769
172,Caravelas,-17.71,-39.25,72.21,83,9,9.6,BR,1594855918
173,Vardø,70.37,31.11,53.92,70,44,11.39,NO,1594855918
174,Toyooka,35.53,134.83,68.0,94,75,3.36,JP,1594855918
175,George Town,5.41,100.34,78.8,94,20,1.12,MY,1594855918
176,Alta Floresta,-9.88,-56.09,73.08,39,0,2.68,BR,1594855918
177,Ishigaki,24.34,124.16,86.0,84,75,19.46,JP,1594855919
178,Leningradskiy,69.38,178.42,47.66,74,86,15.39,RU,1594855919
179,Zhaotong,27.32,103.72,65.16,88,97,3.11,CN,1594855919
180,Kichera,55.94,110.1,61.54,83,96,4.99,RU,1594855919
181,Ponta do Sol,32.67,-17.1,69.8,64,20,16.11,PT,1594855919
182,Galle,6.04,80.22,79.75,82,100,6.42,LK,1594855919
183,Chipinge,-20.19,32.62,46.72,90,61,8.48,ZW,1594855919
184,Amuntai,-2.42,115.25,73.83,96,100,1.81,ID,1594855919
185,Zvishavane,-20.33,30.07,48.9,78,62,13.51,ZW,1594855919
186,Anaconda,46.13,-112.94,77.0,22,1,3.36,US,1594855919
187,Sola,-13.88,167.55,79.41,83,100,12.35,VU,1594855919
188,Pitimbu,-7.47,-34.81,73.4,94,20,5.82,BR,1594855919
189,Ilulissat,69.22,-51.1,46.4,65,90,2.24,GL,1594855919
190,Castro,-24.79,-50.01,52.45,88,2,5.46,BR,1594855760
191,Aklavik,68.22,-135.01,59.0,77,75,6.93,CA,1594855920
192,Tabou,4.42,-7.35,74.26,79,97,7.34,CI,1594855920
193,Eureka,40.8,-124.16,69.01,20,0,5.01,US,1594855726
194,Rio Grande,-32.03,-52.1,36.0,93,0,6.11,BR,1594855627
195,São Filipe,14.9,-24.5,75.96,85,24,5.1,CV,1594855920
196,Lerik,38.77,48.41,73.4,69,0,4.7,AZ,1594855920
197,Rawson,-43.3,-65.1,43.38,65,99,6.26,AR,1594855664
198,Laas,46.62,10.7,55.99,87,75,3.36,IT,1594855920
199,Den Helder,52.96,4.76,61.0,77,98,8.05,NL,1594855920
200,Ayan,56.45,138.17,58.5,85,100,10.78,RU,1594855677
201,Nanortalik,60.14,-45.24,42.48,88,38,8.5,GL,1594855669
202,Kaitangata,-46.28,169.85,43.0,89,44,1.99,NZ,1594855644
203,Grosse Pointe Farms,42.41,-82.89,84.2,48,1,11.41,US,1594855921
204,College,64.86,-147.8,73.4,33,75,8.05,US,1594855709
205,Port Blair,11.67,92.75,80.38,83,94,12.77,IN,1594855921
206,Trincomalee,8.57,81.23,80.76,79,100,18.43,LK,1594855921
207,Imbituba,-28.24,-48.67,50.0,87,0,2.17,BR,1594855921
208,Provideniya,64.38,-173.3,48.2,81,90,8.95,RU,1594855921
209,Kupang,-10.17,123.58,77.0,73,20,8.05,ID,1594855660
210,Merauke,-8.47,140.33,79.11,81,83,15.97,ID,1594855921
211,San Quintín,30.48,-115.95,72.05,68,0,17.87,MX,1594855921
212,Santa Cruz de la Sierra,-17.8,-63.17,75.2,60,40,13.87,BO,1594855922
213,Waingapu,-9.66,120.26,76.12,73,43,12.19,ID,1594855922
214,Matara,5.95,80.54,77.95,86,100,5.61,LK,1594855922
215,Geraldton,-28.77,114.6,57.2,87,90,11.41,AU,1594855922
216,Adrar,20.5,-10.07,93.83,24,0,14.23,MR,1594855922
217,Cayenne,4.93,-52.33,78.8,94,20,2.24,GF,1594855661
218,Katangli,51.71,143.23,66.81,68,49,7.52,RU,1594855922
219,Constitución,-35.33,-72.42,52.66,85,33,6.64,CL,1594855922
220,Tazovsky,67.47,78.7,50.0,98,100,19.53,RU,1594855922
221,Fortuna,40.6,-124.16,62.6,72,20,17.22,US,1594855922
222,Mnogovershinnyy,53.94,139.92,72.19,65,98,1.1,RU,1594855922
223,Pangnirtung,66.15,-65.71,62.6,51,40,18.34,CA,1594855922
224,Encheng,22.18,112.3,84.74,78,61,8.9,CN,1594855922
225,Grindavik,63.84,-22.43,51.8,100,75,13.87,IS,1594855669
226,Sioux Lookout,50.1,-91.92,77.0,38,75,11.41,CA,1594855844
227,Khovd,48.01,91.64,60.46,61,89,3.47,MN,1594855923
228,Coahuayana Viejo,18.73,-103.68,84.2,74,75,11.41,MX,1594855923
229,Porto-Novo,6.5,2.6,75.2,94,20,6.93,BJ,1594855661
230,Lakhdenpokh'ya,61.52,30.2,57.99,82,100,7.85,RU,1594855923
231,Buin,-33.73,-70.75,62.6,71,0,10.29,CL,1594855923
232,Lincoln,40.8,-96.67,79.0,65,90,5.82,US,1594855923
233,Narrabri,-30.32,149.78,50.0,87,0,7.87,AU,1594855923
234,Natitingou,10.3,1.38,69.55,95,100,6.82,BJ,1594855923
235,Kisangani,0.52,25.2,70.59,95,62,0.78,CD,1594855924
236,Singleton,-32.57,151.18,55.99,74,80,6.06,AU,1594855924
237,Rabo de Peixe,37.8,-25.58,68.0,72,75,11.41,PT,1594855924
238,Rozvadiv,49.5,23.62,55.4,93,88,2.24,UA,1594855924
239,Rassvet,46.83,40.75,60.82,49,65,4.27,RU,1594855924
240,Gamba,-2.65,10.0,71.82,89,77,0.72,GA,1594855924
241,Hithadhoo,-0.6,73.08,83.64,72,100,4.76,MV,1594855844
242,Manaure,11.78,-72.44,82.53,70,0,20.89,CO,1594855924
243,Goderich,43.75,-81.72,82.0,83,54,13.44,CA,1594855708
244,Flinders,-34.58,150.86,57.0,60,99,7.0,AU,1594855924
245,Husavik,66.04,-17.34,55.4,76,40,10.29,IS,1594855924
246,Bone,51.97,12.14,57.99,96,0,6.85,DE,1594855924
247,Yar-Sale,66.83,70.83,47.21,74,36,19.08,RU,1594855924
248,Kieta,-6.22,155.63,85.96,62,49,3.33,PG,1594855925
249,Ribeira Grande,38.52,-28.7,69.46,81,100,4.43,PT,1594855925
250,Hopkinsville,36.87,-87.49,89.6,49,1,9.17,US,1594855781
251,Alvorada,-12.48,-49.12,76.98,31,32,3.56,BR,1594855925
252,San Isidro,-12.12,-77.05,59.0,87,90,10.29,PE,1594855925
253,Pacific Grove,36.62,-121.92,73.0,60,1,12.75,US,1594855632
254,Arlit,18.74,7.39,93.43,16,0,7.47,NE,1594855925
255,Sitka,57.05,-135.33,60.8,82,75,8.05,US,1594855925
256,Cabo San Lucas,22.89,-109.91,93.2,46,5,11.41,MX,1594855693
257,Pevek,69.7,170.31,46.51,82,97,2.35,RU,1594855925
258,Uyuni,-20.46,-66.83,42.69,52,0,12.39,BO,1594855925
259,Udhampur,32.93,75.13,75.72,67,0,5.77,IN,1594855925
260,Tilichiki,60.47,166.1,52.07,84,100,3.53,RU,1594855705
261,Kargasok,59.06,80.86,64.38,93,15,11.45,RU,1594855926
262,Faya,18.39,42.45,77.0,31,20,5.26,SA,1594855926
263,Roebourne,-20.78,117.13,66.78,32,1,14.7,AU,1594855926
264,Brae,60.4,-1.35,53.6,93,100,6.93,GB,1594855926
265,Portland,45.52,-122.68,89.01,33,1,16.11,US,1594855926
266,Kavaratti,10.57,72.64,82.74,77,100,21.5,IN,1594855671
267,Atasū,48.68,71.64,68.16,59,6,13.53,KZ,1594855926
268,Norden,53.6,7.2,55.4,93,40,2.24,DE,1594855926
269,Esim,4.87,-2.24,74.03,86,97,7.11,GH,1594855926
270,Wenling,28.37,121.36,82.99,56,84,1.39,CN,1594855667
271,Reconquista,-29.15,-59.65,54.28,58,77,6.82,AR,1594855926
272,Haradok,55.46,29.98,51.71,84,100,6.89,BY,1594855926
273,Haapiti,-17.57,-149.87,78.8,83,75,9.17,PF,1594855926
274,Pihuamo,19.25,-103.38,84.2,74,75,11.41,MX,1594855926
275,Asaka,35.8,139.6,71.01,32,99,5.68,JP,1594855927
276,Khandyga,62.67,135.6,74.32,42,0,5.57,RU,1594855927
277,Comodoro Rivadavia,-45.87,-67.5,39.2,69,95,3.36,AR,1594855821
278,Kostanay,53.17,63.58,69.8,60,0,4.47,KZ,1594855647
279,Looc,12.26,121.99,83.98,73,32,8.25,PH,1594855927
280,Fairbanks,64.84,-147.72,73.99,33,1,5.82,US,1594855878
281,Tuy Hoa,13.08,109.3,81.72,78,20,5.37,VN,1594855927
282,Mangan,27.52,88.53,76.03,61,100,0.78,IN,1594855927
283,Kaeo,-35.1,173.78,61.0,3,36,1.99,NZ,1594855927
284,Amatitán,20.83,-103.72,75.0,68,41,5.01,MX,1594855927
285,Karratha,-20.74,116.85,66.74,36,2,14.36,AU,1594855927
286,Katsuura,35.13,140.3,70.0,88,75,3.36,JP,1594855927
287,Ancud,-41.87,-73.82,50.0,100,90,4.7,CL,1594855927
288,Bahía Blanca,-38.72,-62.27,48.31,67,0,6.58,AR,1594855777
289,Esperance,-33.87,121.9,48.2,81,3,14.99,AU,1594855656
290,Saint Peter,13.25,-59.62,82.4,74,40,12.75,BB,1594855928
291,Manizales,5.07,-75.52,78.8,69,40,9.17,CO,1594855910
292,Kampot,10.62,104.18,78.8,88,40,1.12,KH,1594855928
293,Vol'sk,52.03,47.38,59.86,85,39,2.48,RU,1594855928
294,Kuah,6.33,99.84,78.8,94,20,2.37,MY,1594855928
295,Cururupu,-1.83,-44.87,74.62,90,0,2.77,BR,1594855928
296,Manitouwadge,49.12,-85.84,65.16,61,25,8.84,CA,1594855928
297,Solnechnyy,50.72,136.63,78.94,64,71,5.26,RU,1594855928
298,Okha,53.57,142.95,67.51,74,94,9.04,RU,1594855928
299,Nouakchott,18.09,-15.98,75.2,78,2,8.05,MR,1594855928
300,Maralal,1.1,36.7,57.97,85,75,4.34,KE,1594855928
301,Ardakān,32.31,54.02,84.2,25,75,6.93,IR,1594855928
302,Te Anau,-45.42,167.72,37.42,77,71,0.69,NZ,1594855928
303,Padang,-0.95,100.35,77.9,71,6,4.65,ID,1594855649
304,Santiago del Estero,-27.8,-64.26,52.84,44,35,8.79,AR,1594855929
305,Pińczów,50.52,20.53,62.01,74,86,1.01,PL,1594855929
306,Santo André,-23.66,-46.54,57.2,87,90,8.05,BR,1594855929
307,Evensk,61.95,159.23,50.67,95,100,3.56,RU,1594855930
308,Kloulklubed,7.04,134.26,84.2,79,75,5.82,PW,1594855930
309,Inhambane,-23.86,35.38,62.85,67,29,13.44,MZ,1594855692
310,Asău,46.43,26.4,57.99,81,64,4.52,RO,1594855930
311,Half Moon Bay,37.46,-122.43,79.0,49,5,11.41,US,1594855930
312,Kahului,20.89,-156.47,87.8,48,40,23.04,US,1594855931
313,Titel,45.21,20.29,69.8,82,20,3.36,RS,1594855931
314,Puerto Madryn,-42.77,-65.04,45.5,71,100,9.44,AR,1594855821
315,Shubarkuduk,49.14,56.49,81.19,31,0,8.72,KZ,1594855932
316,Sheltozero,61.37,35.37,56.48,90,91,19.15,RU,1594855934
317,Phalodi,27.13,72.37,91.4,50,2,13.2,IN,1594855934
318,Port-Gentil,-0.72,8.78,75.2,88,90,10.51,GA,1594855934
319,Panama City,8.99,-79.52,86.0,74,20,12.75,PA,1594855901
320,Victor Harbor,-35.57,138.62,55.0,92,22,4.81,AU,1594855934
321,Yulara,-25.24,130.99,41.0,52,0,5.82,AU,1594855934
322,Vágur,61.47,-6.81,51.49,95,95,13.98,FO,1594855934
323,Corn Island,12.17,-83.04,82.27,85,100,14.32,NI,1594855934
324,Biak,-0.91,122.88,77.97,83,100,3.65,ID,1594855935
325,Waddān,29.16,16.14,77.45,43,0,8.37,LY,1594855935
326,Vuktyl,63.86,57.31,52.45,87,99,8.93,RU,1594855935
327,Broken Hill,-31.95,141.43,48.2,61,0,4.76,AU,1594855935
328,Barra de Tecoanapa,16.52,-98.75,86.36,67,56,7.02,MX,1594855935
329,Vári,37.83,23.81,75.99,67,0,2.51,GR,1594855935
330,Monroe,43.15,-77.68,84.2,39,75,6.93,US,1594855825
331,Wellington,-41.29,174.78,48.2,70,100,10.29,NZ,1594855865
332,Poum,-20.23,164.02,70.88,59,0,12.24,NC,1594855935
333,Trairi,-3.28,-39.27,77.65,77,3,11.16,BR,1594855935
334,Pringsewu,-5.36,104.97,76.01,92,92,2.35,ID,1594855935
335,Mumford,5.26,-0.76,73.94,86,99,10.36,GH,1594855935
336,Pathein,16.78,94.73,79.29,87,47,2.64,MM,1594855935
337,Santa Rosa,14.31,121.11,82.0,84,53,1.01,PH,1594855935
338,Mataram,-8.58,116.12,69.8,100,20,7.49,ID,1594855935
339,Touros,-5.2,-35.46,75.2,94,40,5.82,BR,1594855936
340,Kruisfontein,-34.0,24.73,43.23,61,13,3.83,ZA,1594855936
341,Rocha,-34.48,-54.33,39.13,80,0,4.12,UY,1594855936
342,Meadow Lake,34.8,-106.54,93.99,16,75,6.93,US,1594855824
343,Bilma,18.69,12.92,88.07,31,0,10.65,NE,1594855665
344,Corumbá,-19.01,-57.65,77.41,52,32,1.79,BR,1594855936
345,Stokmarknes,68.56,14.91,55.0,87,72,1.99,NO,1594855936
346,Whithorn,18.26,-78.04,87.8,74,20,13.87,JM,1594855936
347,Culebra,18.3,-65.3,84.2,74,75,8.05,PR,1594855936
348,Vanino,49.09,140.25,70.7,66,12,6.31,RU,1594855936
349,Bandar,2.05,99.75,73.9,88,49,1.9,ID,1594855936
350,Rock Sound,24.9,-76.2,84.13,75,42,10.8,BS,1594855936
351,Pinheiro Machado,-31.58,-53.38,39.99,68,0,17.0,BR,1594855936
352,Asekeyevo,53.57,52.8,71.55,88,90,5.3,RU,1594855936
353,Maningrida,-12.07,134.27,75.09,46,14,13.11,AU,1594855937
354,Hasaki,35.73,140.83,66.0,93,75,9.17,JP,1594855679
355,Atar,20.52,-13.05,93.9,20,0,5.12,MR,1594855688
356,Tigil',57.8,158.67,54.97,94,100,8.12,RU,1594855937
357,Nizwá,22.93,57.53,87.93,43,17,2.08,OM,1594855937
358,Cap-aux-Meules,47.38,-61.86,57.2,76,75,17.22,CA,1594855937
359,San Policarpo,12.18,125.51,84.76,72,100,10.36,PH,1594855937
360,Vysokogornyy,50.12,139.15,71.24,75,82,4.74,RU,1594855937
361,Bam,29.11,58.36,86.92,20,93,5.61,IR,1594855937
362,Rovaniemi,66.5,25.72,55.4,71,26,6.93,FI,1594855937
363,Catió,11.28,-15.25,76.59,91,100,13.49,GW,1594855937
364,Bengkulu,-3.8,102.27,77.56,80,79,3.6,ID,1594855907
365,Villa Juárez,24.65,-107.54,93.99,55,40,9.17,MX,1594855937
366,Springdale,36.19,-94.13,90.0,62,20,11.41,US,1594855937
367,Turbat,26.0,63.04,82.22,78,0,3.58,PK,1594855799
368,Jatiroto,-7.88,111.12,75.2,88,40,3.74,ID,1594855938
369,Mehamn,71.04,27.85,54.84,68,85,8.43,NO,1594855938
370,Dunedin,-45.87,170.5,45.0,72,16,17.0,NZ,1594855938
371,Butaritari,3.07,172.79,82.71,75,85,13.22,KI,1594855938
372,Nantucket,41.28,-70.1,66.0,72,1,14.99,US,1594855863
373,Hinganghāt,20.57,78.83,77.0,100,90,4.7,IN,1594855938
374,Jumla,29.27,82.18,61.77,67,76,0.6,NP,1594855938
375,Plouzané,48.38,-4.62,59.0,100,90,5.82,FR,1594855938
376,Carnot,4.94,15.87,69.75,92,75,0.78,CF,1594855938
377,Cheney,47.49,-117.58,87.8,20,75,5.82,US,1594855938
378,Hutchinson,38.06,-97.93,84.99,58,1,4.7,US,1594855938
379,Lianhe,47.13,129.27,82.72,62,95,1.54,CN,1594855938
380,Richards Bay,-28.78,32.04,57.45,65,76,5.57,ZA,1594855939
381,Arrondissement de Saint-Denis,48.92,2.33,64.99,68,90,5.82,FR,1594855939
382,Alice Springs,-23.7,133.88,52.0,56,0,9.98,AU,1594855939
383,Lātehār,23.75,84.5,77.04,88,31,3.83,IN,1594855939
384,Labuhan,-6.88,112.21,76.95,86,34,7.07,ID,1594855939
385,Arman',59.7,150.17,62.92,65,86,1.61,RU,1594855939
386,Qasigiannguit,68.82,-51.19,46.4,65,96,2.24,GL,1594855698
387,San Joaquin,10.26,-67.79,73.17,90,10,6.38,VE,1594855939
388,Verkhoyansk,67.54,133.38,52.41,57,83,7.63,RU,1594855939
389,Linxia Chengguanzhen,35.6,103.21,67.06,57,59,2.84,CN,1594855939
390,Hambantota,6.12,81.12,81.57,75,96,13.53,LK,1594855939
391,Margate,51.38,1.39,61.0,91,100,1.01,GB,1594855837
392,Brigantine,39.41,-74.36,75.2,73,20,10.29,US,1594855939
393,Yermakovskoye,53.28,92.4,55.96,81,84,2.77,RU,1594855939
394,Dawei,14.08,98.2,77.61,86,87,2.28,MM,1594855939
395,Naryan-Mar,67.67,53.09,42.55,92,30,6.33,RU,1594855940
396,Sandwick,60.0,-1.25,53.6,93,100,6.93,GB,1594855940
397,Mercedes,-34.65,-59.43,48.99,63,18,1.99,AR,1594855940
398,Gutiérrez,4.25,-74.0,69.8,94,75,6.93,CO,1594855940
399,Bhadrāchalam,17.67,80.88,76.87,91,100,5.19,IN,1594855940
400,Boguchany,58.38,97.45,54.81,66,0,7.05,RU,1594855940
401,Lithakia,37.72,20.83,69.8,88,0,2.24,GR,1594855940
402,Elko,41.0,-115.5,91.4,7,1,8.9,US,1594855940
403,Roald,62.58,6.13,54.0,93,72,2.8,NO,1594855940
404,Port Lincoln,-34.73,135.87,56.48,70,0,7.38,AU,1594855940
405,Valdivia,-39.81,-73.25,50.0,100,90,1.21,CL,1594855740
406,Khatanga,71.97,102.5,56.48,68,100,10.54,RU,1594855647
407,Codrington,-38.27,141.97,47.41,83,26,4.41,AU,1594855940
408,Santa Maria,-29.68,-53.81,48.2,81,0,4.7,BR,1594855941
409,Seoul,37.57,126.98,75.2,69,1,2.46,KR,1594855912
410,Kaiyuan,23.7,103.3,70.18,79,97,4.25,CN,1594855941
411,Chupa,66.27,33.05,45.23,88,25,4.0,RU,1594855941
412,Inuvik,68.35,-133.72,62.6,63,75,5.82,CA,1594855697
413,Iquique,-20.22,-70.14,59.0,77,2,13.87,CL,1594855941
414,Airai,-8.93,125.41,63.28,79,73,5.14,TL,1594855941
415,Kalanguy,51.02,116.52,70.52,79,92,5.88,RU,1594855941
416,Kovrov,56.36,41.32,55.8,84,88,11.1,RU,1594855941
417,Bealanana,-14.55,48.73,56.1,87,84,3.6,MG,1594855941
418,Söderhamn,61.3,17.06,55.0,88,90,1.01,SE,1594855941
419,Port Macquarie,-31.43,152.92,59.0,54,23,19.46,AU,1594855941
420,Port Hueneme,34.15,-119.2,73.99,68,1,12.75,US,1594855941
421,Dafeng,23.45,108.59,81.7,77,34,5.21,CN,1594855942
422,Altamont,42.21,-121.74,91.99,15,1,6.93,US,1594855942
423,Xinzhi,36.5,111.7,79.99,52,86,3.65,CN,1594855942
424,Big Spring,32.25,-101.48,105.8,12,1,18.34,US,1594855942
425,Kokstad,-30.55,29.42,34.66,67,0,4.18,ZA,1594855942
426,Bǝrdǝ,40.37,47.13,76.78,57,15,4.83,AZ,1594855942
427,Lagoa,39.05,-27.98,68.68,81,100,13.06,PT,1594855942
428,Porto Santo,33.07,-16.34,68.0,72,75,12.75,PT,1594855942
429,João Pessoa,-7.12,-34.86,73.4,94,20,5.82,BR,1594855690
430,Rockport,28.02,-97.05,89.6,66,20,17.22,US,1594855942
431,Schöningen,52.14,10.97,57.0,96,17,6.02,DE,1594855942
432,Toropets,56.5,31.64,52.25,92,100,10.2,RU,1594855942
433,Whitefish,48.41,-114.34,80.6,28,1,10.29,US,1594855811
434,Hofn,64.25,-15.21,51.35,92,100,11.72,IS,1594855942
435,Paamiut,61.99,-49.67,43.83,81,2,20.78,GL,1594855943
436,Asha,55.0,57.27,70.2,62,0,4.5,RU,1594855943
437,The Valley,18.22,-63.06,82.4,78,20,8.05,AI,1594855943
438,Palana,59.12,159.97,50.2,100,100,13.69,RU,1594855943
439,Toccoa,34.58,-83.33,91.4,46,1,5.82,US,1594855943
440,Alpena,45.06,-83.43,72.0,94,90,3.11,US,1594855943
441,Los Llanos de Aridane,28.66,-17.92,78.01,73,40,16.11,ES,1594855644
442,Udimskiy,61.14,45.91,61.39,98,100,7.58,RU,1594855943
443,Sahuaripa,29.05,-109.23,100.0,26,3,4.68,MX,1594855943
444,Talnakh,69.49,88.4,48.2,87,75,4.47,RU,1594855943
445,Salto,-31.38,-57.97,55.4,62,75,5.82,UY,1594855849
446,Ixtapa,20.7,-105.2,87.8,66,75,10.29,MX,1594855698
447,Antofagasta,-23.65,-70.4,55.4,82,20,6.93,CL,1594855912
448,Tarnos,43.54,-1.46,66.2,72,90,3.36,FR,1594855944
449,Deputatsky,69.3,139.9,39.96,72,96,8.48,RU,1594855944
450,Torbay,47.67,-52.73,50.0,100,90,20.8,CA,1594855944
451,Tabuk,17.42,121.44,80.56,79,1,4.09,PH,1594855944
452,Kuala Terengganu,5.33,103.14,77.0,94,20,4.7,MY,1594855944
453,Sovetskiy,61.36,63.58,68.86,85,44,6.8,RU,1594855944
454,Chaiya,9.39,99.2,77.0,100,90,3.31,TH,1594855944
455,Havøysund,71.0,24.66,51.8,93,75,10.29,NO,1594855944
456,Colares,38.8,-9.45,82.99,58,0,13.62,PT,1594855944
457,Zhigansk,66.77,123.37,69.13,53,39,5.23,RU,1594855944
458,Gilgit,35.92,74.31,75.79,36,99,1.52,PK,1594855944
459,Wangaratta,-36.37,146.33,37.4,100,0,2.91,AU,1594855697
460,Terekli-Mekteb,44.17,45.87,78.12,41,43,6.89,RU,1594855944
461,Kavieng,-2.57,150.8,84.38,65,3,3.98,PG,1594855945
462,Amapá,1.0,-52.0,72.73,92,3,2.35,BR,1594855945
463,Lima,-12.04,-77.03,59.0,87,90,10.29,PE,1594855796
464,Kinston,35.26,-77.58,87.8,58,75,9.17,US,1594855945
465,Pisco,-13.7,-76.22,61.0,87,40,6.93,PE,1594855945
466,Tomatlán,19.93,-105.25,88.27,64,24,8.39,MX,1594855945
467,Sørland,67.67,12.69,55.11,85,97,1.14,NO,1594855707
468,Kailua,21.4,-157.74,82.4,61,90,12.75,US,1594855945
469,Ongandjera,-17.88,15.07,54.54,34,0,14.99,NA,1594855945
470,Pashiya,58.43,58.26,66.67,85,0,3.69,RU,1594855945
471,Gōtsuchō,35.0,132.22,69.8,88,75,3.36,JP,1594855945
472,San Matías,-16.37,-58.4,82.92,42,42,3.24,BO,1594855945
473,Khuzhir,53.19,107.34,56.68,81,100,10.02,RU,1594855945
474,Zaoyang,32.13,112.75,71.15,92,100,3.44,CN,1594855946
475,Laguna,38.42,-121.42,96.01,28,1,8.05,US,1594855946
476,Narsaq,60.92,-46.05,53.6,62,5,9.17,GL,1594855946
477,Kidal,18.44,1.41,82.15,54,57,8.61,ML,1594855946
478,Kirakira,-10.45,161.92,82.8,72,99,3.89,SB,1594855946
479,Chicama,-7.84,-79.15,63.25,82,8,6.08,PE,1594855946
480,Yüksekova,37.57,44.29,62.6,77,1,6.93,TR,1594855946
481,Mogadishu,2.04,45.34,77.38,82,97,18.23,SO,1594855946
482,Livingston,55.9,-3.52,57.99,87,82,10.29,GB,1594855946
483,Rongcheng,30.63,117.85,80.01,99,100,2.39,CN,1594855946
484,Samarai,-10.62,150.67,78.51,86,26,16.58,PG,1594855711
485,Ḩasanābād,36.55,61.05,84.22,32,15,16.82,IR,1594855946
486,Terme,41.21,36.97,69.8,83,75,4.43,TR,1594855946
487,Bull Savanna,17.89,-77.59,79.3,86,42,3.29,JM,1594855946
488,Antsohihy,-14.88,47.99,63.63,81,11,5.44,MG,1594855947
489,Biltine,14.53,20.92,81.21,61,89,11.79,TD,1594855947
490,Puerto Baquerizo Moreno,-0.9,-89.6,67.21,89,76,9.15,EC,1594855947
491,Province of Mantua,45.17,10.78,68.0,85,32,1.01,IT,1594855947
492,Pļaviņas,56.62,25.73,51.96,81,96,1.88,LV,1594855947
493,Biloela,-24.42,150.5,58.69,45,0,15.61,AU,1594855947
494,Gornopravdinsk,60.05,69.9,70.32,90,33,2.53,RU,1594855947
495,Namatanai,-3.67,152.43,84.49,68,7,1.66,PG,1594855947
496,Kuzhener,56.81,48.91,60.57,94,24,6.06,RU,1594855947
497,Carson City,39.16,-119.77,95.0,7,1,6.93,US,1594855947
498,Shahrud,36.42,54.98,68.04,62,65,7.38,IR,1594855947
499,Narutochō-mitsuishi,34.18,134.62,79.0,69,75,6.93,JP,1594855947
500,Chui,-33.7,-53.46,41.85,72,0,3.98,UY,1594855947
501,Vangaindrano,-23.35,47.6,64.65,89,7,9.19,MG,1594855947
502,Muscat,23.61,58.59,86.0,89,3,2.24,OM,1594855948
503,Nicoya,10.15,-85.45,77.0,94,91,6.93,CR,1594855948
504,Saint-Pierre,-21.34,55.48,66.2,72,44,4.7,RE,1594855948
505,Puerto del Rosario,28.5,-13.86,73.4,78,5,16.11,ES,1594855948
506,San Andrés,12.58,-81.7,84.2,83,75,9.17,CO,1594855948
507,Garissa,-0.45,39.64,72.91,74,100,16.24,KE,1594855948
508,Pucallpa,-8.38,-74.55,75.2,88,75,1.12,PE,1594855948
509,Knysna,-34.04,23.05,42.8,70,22,2.24,ZA,1594855948
510,Hillsborough,37.57,-122.38,79.0,49,75,9.17,US,1594855948
511,Port Hardy,50.7,-127.42,66.2,77,75,3.36,CA,1594855927
512,Shepsi,44.04,39.15,71.62,68,43,6.98,RU,1594855948
513,Mahanoro,-19.9,48.8,67.39,85,76,6.85,MG,1594855948
514,Mount Isa,-20.73,139.5,57.2,31,1,5.82,AU,1594855949
515,Birjand,32.87,59.22,73.4,28,0,4.7,IR,1594855949
516,Plettenberg Bay,-34.05,23.37,52.3,42,8,3.58,ZA,1594855949
517,Stephenville,32.22,-98.2,97.0,30,1,10.29,US,1594855949
518,Severo-Kuril'sk,50.68,156.12,53.26,87,92,7.54,RU,1594855949
519,Dubbo,-32.25,148.62,39.2,100,40,6.76,AU,1594855846
520,Iberia,29.95,-91.75,89.6,74,75,9.17,US,1594855949
521,Mount Gambier,-37.83,140.77,41.0,100,55,5.82,AU,1594855949
522,Tomball,30.1,-95.62,99.0,41,1,8.05,US,1594855813
523,Emirdağ,39.02,31.15,63.88,74,0,2.24,TR,1594855949
524,Shelburne,44.08,-80.2,80.6,51,20,13.87,CA,1594855949
525,Harper,4.38,-7.72,75.15,74,100,6.85,LR,1594855820
526,Lethem,3.38,-59.8,77.77,80,28,3.58,GY,1594855949
527,Milos,36.75,24.43,69.8,73,0,6.93,GR,1594855949
528,Kūstī,13.16,32.66,80.02,66,100,16.51,SD,1594855949
529,Rize,40.9,40.89,49.39,67,0,3.2,TR,1594855950
530,Santa Isabel Rio Negro,-0.41,-65.02,75.69,83,48,1.48,BR,1594855950
531,Sobreira,41.52,-7.8,70.0,5,26,7.58,PT,1594855950
532,Ovalle,-30.6,-71.2,57.16,76,0,3.02,CL,1594855950
533,Edd,13.93,41.69,92.61,45,92,4.76,ER,1594855950
534,Acajutla,13.59,-89.83,73.4,94,40,11.41,SV,1594855950
535,Lüderitz,-26.65,15.16,73.4,15,0,24.16,NA,1594855950
536,Burns Lake,54.23,-125.75,60.96,78,100,4.36,CA,1594855950
537,Mayo,38.89,-76.51,86.0,54,1,8.05,US,1594855950
538,Berdigestyakh,62.1,126.7,80.74,44,20,0.07,RU,1594855950
539,Huehuetán,15.02,-92.37,89.6,59,5,8.05,MX,1594855950
540,Plateros,23.22,-102.85,82.4,26,75,6.93,MX,1594855950
541,Palmer,42.16,-72.33,77.0,61,75,9.17,US,1594855925
542,Chapais,49.78,-74.85,69.8,56,90,8.05,CA,1594855686
543,Igrim,63.19,64.42,60.12,90,83,10.36,RU,1594855951
544,Emba,48.83,58.14,81.28,32,0,10.96,KZ,1594855951
545,Kaabong,3.48,34.15,63.1,82,92,8.14,UG,1594855951
546,Teshie,5.58,-0.11,75.2,94,90,8.05,GH,1594855951
547,Rafaela,-31.25,-61.49,57.0,26,100,1.99,AR,1594855951
548,Rockledge,28.35,-80.73,84.99,74,40,6.93,US,1594855951
549,Arrondissement de Pithiviers,48.17,2.25,64.0,72,74,5.79,FR,1594855951
550,Osakarovka,50.56,72.57,59.97,74,0,8.93,KZ,1594855951
551,Koster,-25.86,26.9,36.37,60,0,4.99,ZA,1594855951
552,Noyabrsk,63.2,75.45,63.21,86,84,17.49,RU,1594855951
553,Taoudenni,22.68,-3.98,98.33,22,6,14.9,ML,1594855951
554,Xiaoshi,41.3,124.12,75.2,88,0,4.47,CN,1594855828
555,Coruripe,-10.13,-36.18,74.21,87,3,7.52,BR,1594855952
556,Kodino,63.72,39.64,50.77,77,98,9.75,RU,1594855952
557,Tshikapa,-6.42,20.8,70.66,38,1,1.68,CD,1594855952
558,Dwārka,22.24,68.97,83.73,84,100,10.38,IN,1594855952
559,Terre Haute,39.47,-87.41,86.0,62,1,9.17,US,1594855952
560,Ulaangom,49.98,92.07,61.25,61,18,5.26,MN,1594855952
